city_id,city,Lat,Lng,Max Temp,Humidity,Cloudiness,Wind Speed,Country,Date
0,blackmans bay,-43.0167,147.3167,43.52,92,100,8.5,AU,1684434976
1,mambusao,11.4289,122.5961,75.96,90,100,1.99,PH,1684434977
2,ilulissat,69.2167,-51.1,35.62,87,75,6.91,GL,1684434977
3,papatowai,-46.5619,169.4708,49.28,92,100,3.44,NZ,1684434978
4,grytviken,-54.2811,-36.5092,38.71,84,19,13.31,GS,1684434979
5,sinabang,2.4803,96.3801,80.89,79,82,4.47,ID,1684434979
6,ternate,0.8,127.4,81.81,78,100,6.02,ID,1684434980
7,port mathurin,-19.6833,63.4167,78.31,80,2,15.93,MU,1684434980
8,holualoa,19.6228,-155.9522,73.78,86,100,4.61,US,1684434808
9,coyhaique,-45.5752,-72.0662,44.55,87,100,5.75,CL,1684434876
10,haiku-pauwela,20.9219,-156.3051,79.03,70,0,3.44,US,1684434981
11,longyearbyen,78.2186,15.6401,22.84,68,0,10.36,SJ,1684434982
12,iskateley,67.6803,53.1512,56.16,89,100,16.17,RU,1684434982
13,port-aux-francais,-49.35,70.2167,43.34,87,49,25.52,TF,1684434983
14,rosarito,32.3333,-117.0333,62.47,74,99,7.61,MX,1684434983
15,san fernando de apure,7.8878,-67.4724,100.29,33,100,6.06,VE,1684434706
16,shimoda,34.6667,138.95,68.11,87,100,8.21,JP,1684434984
17,sola,-13.8833,167.55,81.0,76,25,5.84,VU,1684434820
18,bethel,41.3712,-73.414,64.02,33,0,6.91,US,1684434924
19,kabinda,-6.1333,24.4833,76.57,58,25,1.86,CD,1684434985
20,yellowknife,62.456,-114.3525,61.32,41,75,6.91,CA,1684434901
21,dudinka,69.4058,86.1778,36.63,100,100,18.92,RU,1684434986
22,buala,-8.145,159.5921,79.16,84,89,0.83,SB,1684434987
23,suva,-18.1416,178.4415,78.28,94,40,4.61,FJ,1684434987
24,puerto ayora,-0.7393,-90.3518,87.76,88,100,10.0,EC,1684434988
25,udachny,66.4167,112.4,30.45,68,100,3.78,RU,1684434988
26,minot air force base,48.4209,-101.3391,43.99,72,100,19.57,US,1684434989
27,isafjordur,66.0755,-23.124,46.44,81,100,8.05,IS,1684434989
28,kodiak,57.79,-152.4072,45.91,53,100,17.27,US,1684434990
29,mount pearl,47.5166,-52.7813,43.14,87,75,23.02,CA,1684434742
30,vincennes,48.85,2.4333,61.93,47,0,10.36,FR,1684434990
31,ushuaia,-54.8,-68.3,44.26,45,20,13.8,AR,1684434956
32,vielha,42.6846,0.7726,44.06,91,97,6.38,ES,1684434991
33,badger,64.8,-147.5333,52.0,59,75,0.0,US,1684434992
34,whitehorse,60.7161,-135.0538,68.09,28,0,5.75,CA,1684434838
35,talnakh,69.4865,88.3972,36.21,98,100,12.01,RU,1684434992
36,la passe,45.5549,-0.8967,64.63,67,80,11.5,FR,1684434994
37,richards bay,-28.783,32.0377,66.83,87,100,7.96,ZA,1684435004
38,waitangi,-43.9535,-176.5597,57.81,90,100,1.01,NZ,1684435004
39,adamstown,-25.066,-130.1015,76.05,81,17,14.67,PN,1684434733
40,albany,42.6001,-73.9662,63.91,28,0,1.99,US,1684435005
41,akdepe,42.0551,59.3788,62.69,43,8,7.05,TM,1684435006
42,jamestown,42.097,-79.2353,69.53,26,0,8.05,US,1684434802
43,al qusayr,34.5091,36.5798,63.57,73,80,9.37,SY,1684435006
44,tiksi,71.6872,128.8694,12.34,93,72,6.82,RU,1684435007
45,praia da vitoria,38.7333,-27.0667,66.45,77,40,10.96,PT,1684435007
46,salekhard,66.53,66.6019,49.46,74,100,10.02,RU,1684435008
47,puerto natales,-51.7236,-72.4875,43.25,70,75,17.27,CL,1684435008
48,anadyr,64.75,177.4833,37.9,75,0,2.24,RU,1684435009
49,avarua,-21.2078,-159.775,73.45,73,5,3.44,CK,1684435009
50,siracusa,37.0881,15.2792,63.77,78,94,4.65,IT,1684434975
51,san julian,21.0167,-102.1667,81.18,18,95,7.25,MX,1684435010
52,margaret river,-33.95,115.0667,57.92,68,11,10.0,AU,1684435010
53,iqaluit,63.7506,-68.5145,29.93,74,75,12.66,CA,1684435011
54,el charco,2.4769,-78.1105,88.74,64,100,8.68,CO,1684435011
55,akureyri,65.6835,-18.0878,57.13,58,75,16.11,IS,1684435011
56,arno,60.1167,18.6333,45.79,70,0,8.5,SE,1684435012
57,west island,-12.1568,96.8225,78.78,73,40,11.5,CC,1684435012
58,utrik,11.2278,169.8474,80.35,82,95,15.21,MH,1684435013
59,cabo san lucas,22.8909,-109.9124,83.61,56,0,13.8,MX,1684434754
60,ravar,31.2656,56.8055,79.29,10,12,6.82,IR,1684435013
61,okhotsk,59.3833,143.3,34.12,97,100,6.38,RU,1684434736
62,doha,25.2867,51.5333,89.91,55,0,10.36,QA,1684434801
63,lihue,21.9789,-159.3672,72.64,92,75,5.75,US,1684434909
64,walvis bay,-22.9575,14.5053,58.15,82,0,4.61,NA,1684435015
65,ustka,54.5805,16.8619,49.64,72,29,8.9,PL,1684435016
66,rio tuba,8.5061,117.4317,81.52,76,100,2.51,PH,1684435017
67,panguipulli,-39.6333,-72.3333,55.42,83,69,3.29,CL,1684434881
68,suzun,53.7841,82.3116,42.55,54,0,6.85,RU,1684435018
69,priozersk,61.0393,30.1291,51.94,48,99,9.04,RU,1684435018
70,vorgashor,67.5833,63.95,43.74,87,100,12.37,RU,1684435019
71,amga,60.8953,131.9608,34.81,91,87,1.57,RU,1684435019
72,aleksandrovsk,59.158,57.5624,48.79,27,13,5.59,RU,1684435020
73,talara,-4.5772,-81.2719,86.76,58,0,14.97,PE,1684435020
74,wailua homesteads,22.0669,-159.378,72.03,91,75,5.75,US,1684435020
75,college,64.8569,-147.8028,52.09,58,75,0.0,US,1684434945
76,lebu,-37.6167,-73.65,56.98,74,92,4.61,CL,1684434754
77,gamba,-2.65,10.0,77.67,88,100,5.91,GA,1684435022
78,hotan,37.0997,79.9269,77.72,13,100,12.19,CN,1684435022
79,scottburgh,-30.2867,30.7532,62.96,84,100,14.07,ZA,1684434935
80,edinburgh of the seven seas,-37.0676,-12.3116,63.36,92,100,13.18,SH,1684435023
81,stadtoldendorf,51.9,9.65,53.62,58,100,4.9,DE,1684435023
82,ta`u,-14.2336,-169.5144,79.81,87,100,19.64,AS,1684435024
83,nar'yan-mar,67.6713,53.087,56.3,89,100,16.58,RU,1684434796
84,arraial do cabo,-22.9661,-42.0278,75.06,50,20,11.5,BR,1684435025
85,zyryanskoye,56.8306,86.6258,38.8,67,7,5.06,RU,1684435025
86,dryden,49.7833,-92.7503,55.69,54,100,17.27,CA,1684435026
87,sur,22.5667,59.5289,91.99,48,18,9.1,OM,1684435026
88,waingapu,-9.6567,120.2641,74.71,88,27,7.36,ID,1684435027
89,antonio enes,-16.2325,39.9086,75.6,78,0,6.6,MZ,1684435027
90,keflavik,64.0049,-22.5624,48.11,100,100,26.46,IS,1684435027
91,aqsay,51.1678,52.995,49.46,77,28,12.17,KZ,1684435028
92,doka,13.5167,35.7667,94.37,9,0,8.72,SD,1684435028
93,kirksville,40.1948,-92.5833,81.57,47,75,6.91,US,1684434923
94,lubango,-14.9172,13.4925,56.48,59,73,3.13,AO,1684435029
95,sao jose da coroa grande,-8.8978,-35.1478,81.19,71,94,8.72,BR,1684435030
96,thompson,55.7435,-97.8558,53.76,40,40,10.36,CA,1684435030
97,ribeira grande,38.5167,-28.7,72.0,73,20,15.01,PT,1684435030
98,rio grande,-32.035,-52.0986,84.31,69,12,6.08,BR,1684435031
99,tura,25.5198,90.2201,69.87,97,100,3.51,IN,1684435031
100,mil'kovo,55.6078,37.7956,67.51,78,43,9.98,RU,1684435032
101,east london,-33.0153,27.9116,56.34,82,0,9.22,ZA,1684435033
102,puerto baquerizo moreno,-0.9,-89.6,83.39,79,40,18.41,EC,1684435033
103,hithadhoo,-0.6,73.0833,83.08,77,14,8.97,MV,1684435034
104,qaqortoq,60.7167,-46.0333,38.03,86,100,6.51,GL,1684435034
105,boende,-0.2167,20.8667,76.96,74,8,1.21,CD,1684435034
106,malango,-2.9627,119.9001,67.06,98,100,1.72,ID,1684435035
107,ulladulla,-35.35,150.4667,45.63,85,7,5.75,AU,1684435019
108,olonkinbyen,70.9221,-8.7187,33.4,93,100,10.38,SJ,1684435036
109,karratha,-20.7377,116.8463,70.59,47,0,12.8,AU,1684435036
110,lewistown,40.5992,-77.5714,68.86,64,0,0.0,US,1684435037
111,ambato boeny,-16.4667,46.7167,72.9,79,13,3.18,MG,1684435037
112,aasiaat,68.7098,-52.8699,32.41,89,61,7.36,GL,1684435038
113,ust-nera,64.5667,143.2,35.4,97,98,8.21,RU,1684435038
114,ponta delgada,37.7333,-25.6667,66.92,88,75,10.36,PT,1684435039
115,dunedin,-45.8742,170.5036,47.8,97,100,1.99,NZ,1684435039
116,carnarvon,-24.8667,113.6333,74.17,47,100,8.14,AU,1684435039
117,san antonio de pale,-1.4014,5.6325,80.74,84,100,12.33,GQ,1684435040
118,kidal,18.4411,1.4078,99.88,10,68,7.34,ML,1684435040
119,arad,46.3333,21.75,60.91,96,100,6.71,RO,1684434980
120,hadibu,12.65,54.0333,86.95,73,3,5.03,YE,1684435042
121,lodwar,3.1191,35.5973,89.62,36,24,16.22,KE,1684435042
122,ketchikan,55.3422,-131.6461,64.87,48,0,8.05,US,1684435043
123,broome,42.2506,-75.833,66.0,27,0,8.01,US,1684435043
124,chuzhou,32.3219,118.2978,63.86,89,98,4.9,CN,1684435044
125,el granada,37.5027,-122.4694,76.6,77,100,17.27,US,1684435044
126,bredasdorp,-34.5322,20.0403,52.95,76,16,1.92,ZA,1684435045
127,new plymouth,-39.0667,174.0833,61.81,88,100,1.01,NZ,1684435045
128,retreat,38.8245,-85.8533,75.24,42,0,1.01,US,1684435046
129,hawaiian paradise park,19.5933,-154.9731,76.03,85,100,5.75,US,1684435046
130,novyy urgal,51.0736,132.5642,38.03,91,5,1.32,RU,1684435047
131,new norfolk,-42.7826,147.0587,44.71,74,59,1.99,AU,1684435047
132,eenhana,-17.4667,16.3333,64.44,25,100,4.52,NA,1684435047
133,lompoc,34.6391,-120.4579,76.69,100,100,5.75,US,1684435048
134,arkhangel'sk,64.5401,40.5433,47.19,71,8,8.39,RU,1684435048
135,dubbo,-32.25,148.6167,37.53,87,0,9.22,AU,1684434945
136,yatou,37.15,122.3833,55.11,91,13,5.17,CN,1684435049
137,georgetown,5.4112,100.3354,84.15,76,40,5.75,MY,1684434934
138,kavaratti,10.5669,72.642,84.78,71,28,5.73,IN,1684435050
139,baharly,38.4362,57.4316,74.16,37,0,6.17,TM,1684435050
140,pionerskiy,54.9508,20.2275,49.84,70,100,10.22,RU,1684435051
141,chibougamau,49.9168,-74.3659,46.02,29,0,12.66,CA,1684435051
142,touros,-5.1989,-35.4608,82.49,74,100,14.27,BR,1684434886
143,manokwari,-0.8667,134.0833,78.82,81,100,4.32,ID,1684435052
144,roma,43.2128,-75.4557,63.95,28,0,3.0,US,1684434832
145,antofagasta,-23.65,-70.4,65.48,74,21,9.01,CL,1684434995
146,palmer,42.1584,-72.3287,66.24,26,8,1.99,US,1684435053
147,xinqing,48.2333,129.5,44.29,65,66,3.74,CN,1684435054
148,alice springs,-23.7,133.8833,40.55,93,0,7.05,AU,1684435055
149,gornopravdinsk,60.05,69.9,46.09,58,52,5.08,RU,1684435055
150,passa quatro,-22.3903,-44.9667,65.98,61,0,3.47,BR,1684435056
151,hermanus,-34.4187,19.2345,56.21,72,3,5.99,ZA,1684435056
152,enewetak,11.3474,162.3373,81.23,72,92,17.36,MH,1684435056
153,stanley,54.868,-1.6985,58.69,69,20,9.22,GB,1684434862
154,thunder bay,48.4001,-89.3168,51.78,54,100,14.97,CA,1684434816
155,atafu village,-8.5421,-172.5159,83.66,78,45,15.41,TK,1684435058
156,oum hadjer,13.2954,19.6966,97.97,23,97,4.18,TD,1684435058
157,coquimbo,-29.9533,-71.3436,65.93,68,0,14.97,CL,1684434763
158,lupane,-18.9315,27.807,63.5,49,10,4.12,ZW,1684435059
159,dalnerechensk,45.9339,133.7225,49.66,63,0,3.44,RU,1684435059
160,tazovsky,67.4667,78.7,35.76,100,100,10.51,RU,1684435060
161,castillos,-34.1667,-53.8333,76.98,48,15,9.33,UY,1684435060
162,minas de marcona,-15.2119,-75.1103,66.65,61,2,16.26,PE,1684435061
163,codrington,-38.2667,141.9667,49.15,90,77,4.38,AU,1684435061
164,invercargill,-46.4,168.35,42.26,96,95,2.95,NZ,1684435061
165,xichang,27.8964,102.2634,62.29,92,55,3.69,CN,1684435062
166,klyuchi,52.2667,79.1667,47.07,47,100,12.64,RU,1684435062
167,yamada,39.4667,141.95,60.35,73,100,6.71,JP,1684435063
168,buka,40.8108,69.1986,66.87,58,86,2.24,UZ,1684435063
169,south grafton,-29.7,152.95,46.47,85,4,3.62,AU,1684435064
170,oliveira dos brejinhos,-12.3169,-42.8961,87.82,35,55,2.06,BR,1684435064
171,nemuro,43.3236,145.575,44.4,97,100,9.69,JP,1684435064
172,punta arenas,-53.15,-70.9167,42.91,70,40,27.63,CL,1684434846
173,villa gesell,-37.2639,-56.973,64.06,66,28,13.65,AR,1684435065
174,obolensk,54.9774,37.2245,58.14,87,92,6.85,RU,1684435066
175,derzhavinsk,51.1,66.3167,50.4,87,100,21.68,KZ,1684435066
176,calderitas,18.55,-88.25,89.71,58,40,9.22,MX,1684435067
177,port alfred,-33.5906,26.891,53.19,93,4,3.0,ZA,1684435067
178,villa canas,-34.0057,-61.6076,73.92,10,0,4.74,AR,1684435067
179,kingston,17.997,-76.7936,88.25,70,20,19.57,JM,1684434619
180,alofi,-19.0595,-169.9187,75.09,88,100,6.91,NU,1684435068
181,ust-tsilma,65.441,52.1498,65.5,45,14,11.01,RU,1684435069
182,arrecife,28.963,-13.5477,71.58,60,20,25.32,ES,1684435069
183,kailua-kona,19.6406,-155.9956,77.5,86,100,4.61,US,1684435069
184,chonchi,-42.6128,-73.8092,54.61,77,87,10.83,CL,1684435070
185,horta,38.5333,-28.6333,71.24,83,20,15.01,PT,1684435070
186,greenville,35.6127,-77.3663,75.36,36,0,11.5,US,1684434900
187,altayskoye,51.9533,85.3325,37.0,74,0,2.8,RU,1684435071
188,san lawrenz,36.0553,14.204,64.85,79,4,23.96,MT,1684435072
189,whangarei,-35.7317,174.3239,59.4,97,15,5.97,NZ,1684434973
190,saipan,15.1355,145.701,83.1,100,75,12.66,MP,1684434944
191,constantia,44.1833,28.65,65.08,79,0,12.68,RO,1684434905
192,bilibino,68.0546,166.4372,33.67,75,74,2.8,RU,1684435073
193,callao,-12.0667,-77.15,76.71,64,100,10.36,PE,1684435074
194,jinghong,21.991,100.7341,71.08,72,6,3.74,CN,1684435074
195,namibe,-15.1961,12.1522,69.82,68,100,11.88,AO,1684434933
196,villa rica,33.7321,-84.9191,75.61,91,99,1.99,US,1684435023
197,peace river,56.2501,-117.286,66.51,39,0,8.05,CA,1684434823
198,aykhal,66.0,111.5,23.54,97,100,4.83,RU,1684435076
199,vadso,70.0744,29.7487,40.08,65,20,0.0,NO,1684435076
200,rongelap,11.1635,166.8941,81.23,74,100,17.72,MH,1684435077
201,greymouth,-42.4667,171.2,50.02,90,100,10.36,NZ,1684435077
202,narok,-1.0783,35.8601,57.97,91,26,3.4,KE,1684435077
203,tarquinia,42.2482,11.7553,61.65,92,100,4.03,IT,1684435078
204,pisco,-13.7,-76.2167,75.25,64,100,9.22,PE,1684435078
205,hamilton,39.1834,-84.5333,76.08,42,0,5.75,US,1684435079
206,shiggaon,15.0,75.2333,82.26,45,62,10.67,IN,1684435079
207,val-des-monts,45.6501,-75.666,60.4,24,0,14.97,CA,1684435080
208,carutapera,-1.195,-46.02,81.54,82,100,5.3,BR,1684435080
209,karakecili,39.5942,33.3778,56.5,73,25,2.91,TR,1684435081
210,belmonte,-15.8631,-38.8828,76.33,72,100,12.08,BR,1684435081
211,beboto,8.2668,16.939,87.03,48,98,7.94,TD,1684435082
212,pechora,65.1472,57.2244,59.54,61,89,13.58,RU,1684435082
213,santa ana,33.7456,-117.8678,73.92,85,100,10.36,US,1684434943
214,korla,41.7597,86.1469,77.11,20,100,8.99,CN,1684435083
215,luderitz,-26.6481,15.1594,57.02,66,0,20.2,NA,1684435083
216,mount gambier,-37.8333,140.7667,48.34,89,56,2.08,AU,1684435084
217,murzuq,25.9155,13.9184,88.16,11,57,11.12,LY,1684435084
218,mount isa,-20.7333,139.5,53.37,50,2,8.05,AU,1684435085
219,jaumave,23.4167,-99.3833,88.95,38,36,5.79,MX,1684435085
220,geraldton,-28.7667,114.6,68.41,28,15,21.85,AU,1684435086
221,hasaki,35.7333,140.8333,72.21,76,100,20.2,JP,1684435086
222,thief river falls,48.1191,-96.1812,49.15,100,100,11.5,US,1684434854
223,pokrovskoye,47.4157,38.8971,63.88,62,73,11.7,RU,1684435087
224,floro,61.5996,5.0328,53.24,93,75,8.05,NO,1684435088
225,berezovo,63.9381,65.0419,57.96,48,19,12.71,RU,1684435088
226,lucea,18.451,-78.1736,85.86,71,25,2.42,JM,1684435089
227,pangody,65.85,74.4859,43.54,78,100,15.1,RU,1684435089
228,remire-montjoly,4.9167,-52.2667,80.64,83,75,13.8,GF,1684435089
229,flying fish cove,-10.4217,105.6791,76.68,94,75,10.36,CX,1684435090
230,bamboo flat,11.7,92.7167,80.69,83,20,2.3,IN,1684435090
231,zheleznogorsk-ilimskiy,56.5768,104.1217,34.43,98,100,8.28,RU,1684435091
232,melekhovo,56.2773,41.2935,63.93,56,95,2.28,RU,1684435091
233,al ghayzah,16.2079,52.176,86.54,74,0,9.78,YE,1684435092
234,newnham,-41.3833,147.1333,41.67,93,100,8.05,AU,1684435092
235,vanimo,-2.6741,141.3028,78.12,88,100,9.33,PG,1684435093
236,saint john,45.2727,-66.0677,52.83,30,20,6.91,CA,1684435093
237,sisimiut,66.9395,-53.6735,35.2,90,86,3.65,GL,1684435093
238,antsiranana,-12.2787,49.2917,73.76,85,5,8.39,MG,1684435094
239,wenling,28.3669,121.36,66.87,91,71,4.41,CN,1684435095
240,kapa'a,22.0752,-159.319,73.38,91,75,5.75,US,1684434832
241,king city,36.2127,-121.126,85.87,21,0,5.77,US,1684434911
242,santa vitoria do palmar,-33.5189,-53.3681,76.12,51,0,7.18,BR,1684435096
243,flin flon,54.7682,-101.865,53.44,30,0,12.66,CA,1684435097
244,milford haven,51.7128,-5.0341,58.66,84,100,8.23,GB,1684435097
245,crane,31.3974,-102.3501,86.09,29,99,5.77,US,1684435097
246,adrar,20.5022,-10.0711,87.08,15,32,12.77,MR,1684435098
247,kone,-21.0595,164.8658,69.15,69,100,5.86,NC,1684435099
248,puerto lempira,15.2667,-83.7667,91.54,62,40,13.8,HN,1684435100
249,mountain top,40.1068,-75.9527,66.65,45,5,4.61,US,1684435101
250,sen monorom,12.45,107.2,70.7,86,62,3.96,KH,1684435102
251,bangar,16.8936,120.4243,80.6,79,40,2.44,PH,1684435103
252,trairi,-3.2778,-39.2689,82.69,79,46,8.63,BR,1684434889
253,kumylzhenskaya,49.8809,42.5898,60.71,60,23,7.52,RU,1684435104
254,port lincoln,-34.7333,135.8667,57.38,71,98,6.49,AU,1684435104
255,pueblo,38.2545,-104.6091,71.62,54,75,8.05,US,1684435032
256,zhigalovo,54.8097,105.1578,34.0,83,100,4.21,RU,1684435106
257,fort bragg,35.139,-79.006,78.91,39,20,12.66,US,1684435106
258,eidson road,28.6772,-100.487,90.16,54,20,11.5,US,1684435106
259,bodaybo,57.8506,114.1933,35.22,93,100,3.33,RU,1684435107
260,fortuna,40.5982,-124.1573,57.65,95,100,3.44,US,1684434889
261,campbell river,50.0163,-125.2446,71.98,64,20,8.05,CA,1684435108
262,muroto-misakicho,33.2833,134.15,65.05,87,100,15.1,JP,1684435108
263,irara,-12.05,-38.7667,74.12,85,100,10.33,BR,1684435109
264,amahai,-3.3333,128.9167,86.09,76,100,6.31,ID,1684435109
265,balaka,-14.9793,34.9558,67.21,62,2,4.59,MW,1684435110
266,torbat-e jam,35.244,60.6225,68.97,30,0,7.43,IR,1684435110
267,st. john's,47.5649,-52.7093,43.99,87,75,23.02,CA,1684435110
268,tralee,52.2704,-9.7026,54.18,87,47,5.97,IE,1684435111
269,prado,-17.3411,-39.2208,74.48,67,96,10.6,BR,1684435111
270,jayapura,-2.5333,140.7,76.39,91,100,7.09,ID,1684435112
271,nogent-le-rotrou,48.3333,1.0,50.58,82,7,9.35,FR,1684435112
272,nova sintra,14.8667,-24.7167,69.62,78,74,20.42,CV,1684435113
273,yei,4.095,30.6779,69.39,96,100,4.81,SS,1684435113
274,kachug,53.9606,105.8817,34.88,73,100,4.07,RU,1684435114
275,yaren,-0.5472,166.916,83.32,77,100,9.15,NR,1684435114
276,harstad,68.799,16.5293,42.19,97,100,21.99,NO,1684435114
277,kargasok,59.0556,80.8572,43.2,55,100,4.9,RU,1684435115
278,bonthe,7.5264,-12.505,82.27,77,85,9.95,SL,1684435115
279,cockburn town,21.4612,-71.1419,81.72,77,9,10.38,TC,1684435030
280,argo,37.6333,22.7333,68.79,66,26,2.33,GR,1684435116
281,motilla del palancar,39.5709,-1.9068,62.42,47,72,8.99,ES,1684435117
282,alpine,32.835,-116.7664,88.56,66,100,0.0,US,1684435117
283,mizdah,31.4451,12.9801,84.65,10,75,7.7,LY,1684435118
284,funafuti,-8.5243,179.1942,84.2,89,75,5.75,TV,1684435119
285,kodinsk,58.6881,99.1844,33.94,83,10,2.53,RU,1684435119
286,nema,57.5067,50.5011,53.65,62,1,5.88,RU,1684435120
287,pedrera,37.2012,-4.9035,59.52,62,99,2.33,ES,1684435120
288,nikolayevsk-on-amure,53.1406,140.73,38.01,95,100,3.96,RU,1684435121
289,matriz de camaragibe,-9.1517,-35.5333,85.44,68,100,7.45,BR,1684435121
290,kerikeri,-35.2268,173.9474,58.91,95,15,8.59,NZ,1684435122
291,bahraigh,27.5833,81.6,90.81,30,0,11.48,IN,1684435122
292,saint-philippe,-21.3585,55.7679,74.79,84,37,7.02,RE,1684435123
293,jiangyou,31.7667,104.7167,69.98,79,100,1.07,CN,1684435123
294,quiindy,-25.9667,-57.2667,82.29,40,0,3.83,PY,1684435123
295,san andres,12.5847,-81.7006,87.82,70,20,9.22,CO,1684434990
296,saint-joseph,-21.3667,55.6167,73.78,83,20,4.0,RE,1684435125
297,sirte,31.2089,16.5887,77.29,39,0,19.53,LY,1684435125
298,kruisfontein,-34.0033,24.7314,53.33,84,52,10.56,ZA,1684435125
299,tangalle,6.024,80.7911,80.76,90,57,6.51,LK,1684435126
300,metlili chaamba,32.2667,3.6333,81.54,26,0,13.8,DZ,1684435126
301,petropavlovsk-kamchatsky,53.0452,158.6483,36.19,100,100,4.47,RU,1684435127
302,ormara,25.2088,64.6357,82.0,87,6,10.63,PK,1684435127
303,quellon,-43.1167,-73.6167,53.85,82,75,13.8,CL,1684435128
304,pingliang,35.5392,106.6861,60.85,64,100,5.73,CN,1684435128
305,aripuana,-9.1667,-60.6333,88.16,58,92,1.23,BR,1684435128
306,sao gabriel da cachoeira,-0.1303,-67.0892,91.2,70,20,5.75,BR,1684435129
307,tolanaro,-25.0319,46.9987,68.07,100,20,0.0,MG,1684435129
308,fada n'gourma,12.0622,0.3578,89.89,42,100,6.13,BF,1684435130
309,brejinho,-6.1908,-35.3567,77.65,74,100,11.83,BR,1684435130
310,tampakan,6.4442,124.9264,75.79,95,100,1.63,PH,1684435131
311,betio village,1.358,172.9211,84.24,79,83,12.26,KI,1684435131
312,dadukou,26.5479,101.7054,72.48,59,30,1.23,CN,1684435131
313,la'ie,21.6477,-157.9253,78.76,82,100,5.99,US,1684435132
314,dhaka,23.7104,90.4074,82.38,74,40,6.91,BD,1684434996
315,fuyu,45.1833,124.8167,55.44,22,0,5.68,CN,1684435133
316,tommot,58.9564,126.2925,32.86,89,100,2.77,RU,1684435133
317,belo sur tsiribihina,-19.7,44.55,70.59,79,0,2.98,MG,1684435134
318,mugumu,-1.85,34.7,61.75,96,84,4.14,TZ,1684435134
319,juan griego,11.0817,-63.9655,78.93,83,99,16.11,VE,1684435135
320,labrador city,52.9463,-66.9114,39.11,48,75,20.71,CA,1684435135
321,puerto deseado,-47.7503,-65.8938,57.49,38,100,29.24,AR,1684435136
322,polokwane,-23.9045,29.4688,54.45,82,0,3.44,ZA,1684435136
323,kolonia town,6.964,158.206,77.0,100,100,0.0,FM,1684435136
324,ishigaki,24.3448,124.1572,78.93,100,100,5.75,JP,1684435137
325,vilyuysk,63.7553,121.6247,29.64,86,70,4.34,RU,1684435137
326,likiep,9.8251,169.3107,81.5,81,73,14.34,MH,1684435138
327,uturoa,-16.7333,-151.4333,81.84,77,96,11.56,PF,1684435139
328,mitu,1.1983,-70.1733,93.27,47,74,2.82,CO,1684435139
329,hinton,53.4001,-117.5857,70.25,33,5,6.46,CA,1684435062
330,mocimboa,-11.3167,40.35,74.16,86,3,4.54,MZ,1684435140
331,anacapri,40.5558,14.2136,62.4,84,75,0.0,IT,1684435140
332,chipinge,-20.1883,32.6236,63.68,70,52,3.71,ZW,1684435141
333,manismata,-2.4667,111.0333,73.53,99,98,1.97,ID,1684435141
334,fort mcmurray,56.7268,-111.381,62.19,39,0,8.05,CA,1684435142
335,guerrero negro,27.9769,-114.0611,68.14,57,11,11.12,MX,1684435142
336,kayangel,8.0823,134.7173,81.99,77,100,0.78,PW,1684435143
337,janeng,-25.4167,25.55,56.84,44,30,12.26,BW,1684435143
338,semdinli,37.3051,44.5742,57.24,50,41,3.02,TR,1684435123
339,cao bang,22.6667,106.25,74.28,95,2,3.02,VN,1684435144
340,tyup,42.7276,78.3648,51.89,78,100,4.72,KG,1684435145
341,urangan,-25.3,152.9,60.08,69,0,9.51,AU,1684435145
342,dhidhdhoo,6.8833,73.1,83.75,76,6,5.61,MV,1684435146
343,mary,37.0,62.5,73.35,35,100,15.86,TM,1684435146
344,rzepin,52.3464,14.8323,55.18,64,23,5.55,PL,1684435147
345,yelizovo,53.1873,158.3805,37.54,100,100,4.47,RU,1684435147
346,talakan,50.3167,130.3667,44.06,67,23,2.93,RU,1684435148
347,inirida,3.8653,-67.9239,88.18,64,99,3.33,CO,1684435148
348,el porvenir,13.7617,-87.3458,92.53,33,82,4.52,HN,1684435149
349,port douglas,-16.4833,145.4667,69.12,78,89,5.84,AU,1684435149
350,nelson,-41.2833,173.2833,52.29,91,100,1.99,NZ,1684435149
351,magadan,59.5667,150.8,36.05,99,100,7.65,RU,1684435150
352,lorengau,-2.0226,147.2712,79.3,86,100,14.12,PG,1684435150
353,port elizabeth,-33.918,25.5701,57.49,93,40,11.5,ZA,1684435151
354,nassau,40.7507,-73.5829,62.87,45,0,13.8,US,1684435151
355,katsuura,35.1333,140.3,69.04,83,100,16.04,JP,1684435152
356,kalemie,-5.9475,29.1947,73.38,78,30,0.47,CD,1684435152
357,shanor-northvue,40.9105,-79.9156,73.4,41,61,1.01,US,1684435153
358,san jose de jachal,-30.2406,-68.7469,63.72,50,0,4.05,AR,1684435153
359,taltal,-25.4,-70.4833,68.09,70,27,6.96,CL,1684435153
360,acarau,-2.8856,-40.12,83.01,79,80,10.4,BR,1684435154
361,giado,31.9582,12.0203,82.44,12,81,3.09,LY,1684435154
362,ikast,56.1388,9.1577,57.06,62,24,8.05,DK,1684434954
363,fale old settlement,-9.3852,-171.2468,83.84,79,93,16.91,TK,1684435156
364,hafar al-batin,28.4328,45.9708,86.58,32,0,18.41,SA,1684435157
365,nishinoomote,30.7333,131.0,73.9,94,84,23.13,JP,1684435157
366,saint-pierre,-21.3393,55.4781,74.88,88,100,2.3,RE,1684435158
367,nagqu,31.5,92.0,32.76,85,100,3.42,CN,1684435158
368,cradock,-32.1642,25.6192,47.28,81,100,7.23,ZA,1684435159
369,mogadishu,2.0371,45.3438,80.87,86,39,15.48,SO,1684435159
370,jiexiu,37.0244,111.9125,68.16,59,0,6.89,CN,1684435113
371,bou tlelis,35.5727,-0.8996,66.31,67,100,15.75,DZ,1684435160
372,dakoro,14.5106,6.765,90.32,37,100,10.38,NE,1684435160
373,kyshtovka,56.555,76.6271,43.16,55,63,6.15,RU,1684435161
374,weno,7.4515,151.8468,82.35,83,100,8.05,FM,1684435162
375,tromso,69.6496,18.957,41.02,75,75,18.41,NO,1684434896
376,ylitornio,66.3089,23.6773,40.51,79,20,0.29,FI,1684435163
377,justiniano posse,-32.8841,-62.6779,68.92,47,0,3.58,AR,1684435163
378,vanino,49.0869,140.2543,45.05,90,8,2.75,RU,1684435164
379,nunchritz,51.2999,13.3856,56.8,72,96,5.95,DE,1684435164
380,vilyuchinsk,52.9306,158.4028,37.67,97,100,6.62,RU,1684435165
381,farsan,32.2569,50.561,55.44,29,98,3.42,IR,1684435165
382,odacho-oda,35.1833,132.5,59.65,97,100,9.35,JP,1684435166
383,aiquile,-18.2041,-65.1807,72.34,43,0,12.88,BO,1684435166
384,san patricio,28.017,-97.5169,89.08,48,83,8.5,US,1684435167
385,luorong,24.4058,109.6086,73.89,91,25,3.71,CN,1684435113
386,salinopolis,-0.6136,-47.3561,83.66,74,46,8.55,BR,1684435167
387,tsiombe,-25.3,45.4833,64.94,87,1,4.09,MG,1684435168
388,bubaque,11.2833,-15.8333,80.4,76,99,20.27,GW,1684435168
389,baise city,23.8997,106.6133,75.29,94,26,1.88,CN,1684435169
390,bereznik,62.8551,42.7072,50.49,88,100,5.41,RU,1684435169
391,zdvinsk,54.7021,78.661,42.69,52,2,7.81,RU,1684435170
392,karkira,36.9292,6.5856,57.7,87,75,1.7,DZ,1684435170
393,ancud,-41.8697,-73.8203,54.12,79,86,19.06,CL,1684435171
394,kirakira,-10.4544,161.9205,78.73,85,100,5.35,SB,1684435171
395,huarmey,-10.0681,-78.1522,77.58,69,19,12.91,PE,1684435171
396,arica,-18.475,-70.3042,76.55,60,0,16.11,CL,1684435172
397,mahalapye,-23.1041,26.8142,68.32,39,0,3.69,BW,1684435172
398,kapuskasing,49.4169,-82.4331,60.89,31,75,12.66,CA,1684435173
399,busselton,-33.65,115.3333,57.97,72,6,10.31,AU,1684435173
400,mirny,62.5353,113.9611,33.24,69,17,7.0,RU,1684435174
401,dongning,44.0622,131.1207,48.79,62,5,2.15,CN,1684435174
402,mysliborz,52.9238,14.8679,56.86,75,63,9.08,PL,1684435174
403,progreso,21.2833,-89.6667,95.11,62,1,14.38,MX,1684435175
404,laguna,38.421,-121.4238,84.02,54,0,5.75,US,1684435175
405,bogande,12.9714,-0.1436,88.77,43,86,9.89,BF,1684435176
406,santa cruz,-17.8,-63.1667,80.65,74,75,8.05,BO,1684435037
407,portland,45.5234,-122.6762,77.77,60,20,5.99,US,1684434880
408,aksu,41.1231,80.2644,76.89,24,100,3.89,CN,1684435159
409,arroio grande,-32.2375,-53.0869,76.24,60,0,7.18,BR,1684434934
410,genhe,50.7833,121.5167,50.4,43,100,8.59,CN,1684435178
411,kletskaya,49.3145,43.0584,61.75,57,13,6.42,RU,1684435178
412,sogndal,61.2283,7.1003,50.38,61,75,2.3,NO,1684435179
413,male,4.1748,73.5089,84.15,84,20,3.44,MV,1684435179
414,mount airy,36.4993,-80.6073,68.95,58,100,5.75,US,1684435081
415,alexandria,31.2156,29.9553,67.96,68,0,12.66,EG,1684435180
416,itaueira,-7.6033,-43.0256,86.79,49,100,5.5,BR,1684435181
417,los alamos,35.8881,-106.307,71.56,47,100,7.18,US,1684435181
418,loanda,-8.8368,13.2343,80.6,69,20,10.36,AO,1684434939
419,toliara,-23.35,43.6667,70.36,60,0,4.92,MG,1684435182
420,pangoa,-12.1167,-73.0,86.94,49,36,3.44,PE,1684435182
421,maues,-3.3836,-57.7186,85.03,79,85,2.35,BR,1684435183
422,kudahuvadhoo,2.6708,72.8944,82.78,74,2,3.11,MV,1684435183
423,kirkwall,58.9848,-2.9587,51.96,87,75,6.91,GB,1684435184
424,el jadid,33.2549,-8.506,67.55,71,0,15.05,MA,1684435184
425,morehead city,34.7229,-76.726,77.0,66,75,13.8,US,1684435184
426,ottumwa,41.02,-92.4113,84.74,47,0,6.91,US,1684435185
427,kalymnos,36.95,26.9833,65.73,82,20,10.36,GR,1684434943
428,byron bay,-28.65,153.6167,48.7,78,14,9.84,AU,1684434965
429,afaahiti,-17.75,-149.2833,82.27,83,79,12.12,PF,1684435186
430,tshabong,-26.05,22.45,59.02,38,0,12.93,BW,1684435187
431,toulepleu guere,6.574,-8.4259,75.69,93,38,4.43,CI,1684435187
432,morant bay,17.8815,-76.4093,89.71,65,10,11.03,JM,1684435187
433,island harbour,50.724,-1.2758,61.32,76,75,1.99,GB,1684435188
434,tegueste,28.5167,-16.3167,65.98,83,75,16.11,ES,1684435188
435,rundu,-17.9333,19.7667,67.05,28,41,3.83,NA,1684435189
436,lerwick,60.1545,-1.1494,48.2,94,100,18.14,GB,1684435189
437,pak phanang,8.3511,100.202,81.09,81,98,4.03,TH,1684435190
438,solleftea,63.1667,17.2667,55.26,69,12,3.71,SE,1684435190
439,develi,38.3906,35.4922,56.55,77,49,4.81,TR,1684435191
440,kittila,67.6647,24.8936,41.61,52,0,2.3,FI,1684435191
441,andratx,39.5755,2.4202,65.41,31,70,13.44,ES,1684435191
442,viedma,-40.8135,-62.9967,66.47,26,5,14.9,AR,1684435192
443,tres arroyos,-38.3739,-60.2798,63.81,47,0,6.38,AR,1684435192
444,matonga,-2.3833,34.0833,66.67,87,80,4.88,TZ,1684435193
445,pahrump,36.2083,-115.9839,90.52,18,2,4.0,US,1684435193
446,gadzhiyevo,69.2551,33.3362,36.21,75,97,10.8,RU,1684435194
447,margate,51.3813,1.3862,53.87,68,6,5.01,GB,1684435194
448,dundalk,39.2507,-76.5205,71.38,39,75,4.61,US,1684434916
449,berezovyy,51.6667,135.7,45.41,86,90,3.0,RU,1684435195
450,coos bay,43.3665,-124.2179,59.23,88,100,0.0,US,1684435195
451,cromwell,41.5951,-72.6454,67.5,30,0,12.66,US,1684434907
452,dili,-8.5586,125.5736,76.6,72,71,5.86,TL,1684435196
453,choibalsan,48.0667,114.5,55.96,31,0,12.64,MN,1684435197
454,coahuayana de hidalgo,18.7,-103.6583,92.12,43,6,8.19,MX,1684435197
455,alvorada,-12.48,-49.1247,95.5,25,0,3.47,BR,1684435198
456,presidente epitacio,-21.7633,-52.1156,74.68,54,0,4.16,BR,1684435198
457,luanda,-8.8368,13.2343,80.6,69,20,10.36,AO,1684434939
458,tan-tan,28.438,-11.1032,67.95,72,75,25.32,MA,1684435199
459,dwarka,22.2394,68.9678,82.63,82,2,12.12,IN,1684435161
460,eastham,41.8301,-69.9739,60.6,41,0,7.0,US,1684435205
461,colonia,50.9333,6.95,61.95,52,0,12.66,DE,1684435205
462,opuwo,-18.0607,13.84,61.99,40,0,5.73,NA,1684435206
463,kralendijk,12.15,-68.2667,85.98,70,75,18.41,BQ,1684435206
464,santander,43.4647,-3.8044,60.58,75,40,14.0,ES,1684434810
465,sandnessjoen,66.0217,12.6316,50.52,72,75,12.66,NO,1684435207
466,changzhou,31.7833,119.9667,61.79,90,100,3.18,CN,1684435208
467,amos,48.5669,-78.1162,57.76,23,97,8.7,CA,1684434914
468,port shepstone,-30.7414,30.455,64.47,79,100,15.5,ZA,1684435209
469,sitangkai,4.6628,119.3928,83.62,75,96,6.89,PH,1684435209
470,charters towers,-20.1,146.2667,53.83,39,0,8.9,AU,1684434975
471,la libertad,-2.2333,-80.9,83.86,70,20,6.91,EC,1684435174
472,acapulco de juarez,16.8634,-99.8901,87.62,70,0,8.05,MX,1684435108
473,necochea,-38.5473,-58.7368,61.57,68,2,10.16,AR,1684435211
474,kismayo,-0.3582,42.5454,80.71,81,8,15.03,SO,1684435211
475,el bauga,18.262,33.9081,91.27,8,0,11.79,SD,1684435212
476,yuzhno-kurilsk,44.0306,145.8556,45.63,97,100,12.8,RU,1684435212
477,phan rang-thap cham,11.5667,108.9833,80.62,77,100,3.44,VN,1684435213
478,abadan,30.3392,48.3043,87.75,33,0,4.61,IR,1684435213
479,cadale,2.7603,46.3222,81.32,85,45,15.93,SO,1684435214
480,hovd,48.0056,91.6419,36.19,35,100,1.86,MN,1684435215
481,tocopilla,-22.092,-70.1979,71.06,71,34,9.78,CL,1684435145
482,aginskoye,51.1,114.53,51.4,70,100,17.54,RU,1684435216
483,sambalpur,21.45,83.9667,84.07,39,0,4.25,IN,1684435216
484,spokane valley,47.6732,-117.2394,79.92,51,0,8.05,US,1684435114
485,yeniseysk,58.4497,92.1703,37.69,80,100,4.41,RU,1684435217
486,susuman,62.7833,148.1667,31.39,86,10,6.58,RU,1684435217
487,mugia,43.1041,-9.2179,66.16,72,59,25.48,ES,1684435218
488,sadovoye,47.7764,44.5089,63.68,48,77,6.91,RU,1684435218
489,lae,-6.7221,146.9847,76.84,92,100,0.92,PG,1684435219
490,huambo,-12.7761,15.7392,69.6,43,2,5.75,AO,1684435219
491,yung shue wan,22.2333,114.1167,83.57,87,20,1.01,HK,1684435220
492,masterton,-40.9597,175.6575,48.29,95,100,5.39,NZ,1684435220
493,dembi dolo,8.5333,34.8,61.27,92,100,4.54,ET,1684435221
494,port augusta,-32.5,137.7667,47.39,81,0,3.56,AU,1684435221
495,kuragino,53.8975,92.6725,35.53,71,44,3.02,RU,1684435222
496,milazzo,38.2212,15.2383,66.78,82,97,1.99,IT,1684435222
497,pyt-yakh,60.7499,72.8582,47.08,52,14,5.03,RU,1684435223
498,pankovka,58.5,31.1999,48.15,62,53,5.7,RU,1684435223
499,saquarema,-22.92,-42.5103,75.24,61,16,9.15,BR,1684435223
500,uberlandia,-18.9186,-48.2772,81.61,24,0,4.61,BR,1684435224
501,kristiansund,63.1115,7.732,57.25,54,75,4.61,NO,1684435224
502,xiongzhou,25.1167,114.3,73.26,91,44,1.83,CN,1684435225
503,mohr,54.3528,9.7167,57.29,54,0,9.22,DE,1684435225
504,paka,4.6374,103.4368,75.13,100,100,0.0,MY,1684435226
505,choyr,46.3611,108.3611,35.73,60,40,28.41,MN,1684435226
506,akrehamn,59.2667,5.1833,54.0,87,75,11.5,NO,1684435227
507,suntar,62.1444,117.6319,35.87,74,100,4.76,RU,1684435227
508,markovo,57.3206,107.0881,38.34,86,100,8.28,RU,1684435228
509,kerema,-7.9631,145.7785,75.94,96,100,3.22,PG,1684435228
510,taulaga,-11.0553,-171.0883,83.32,78,88,14.88,AS,1684435229
511,namsos,64.4662,11.4957,51.71,71,100,3.44,NO,1684435229
512,boa vista,2.8197,-60.6733,84.18,70,100,4.61,BR,1684435230
513,ilek,51.5271,53.3831,51.17,71,91,10.83,RU,1684435230
514,barra de santo antonio,-9.4047,-35.5072,85.28,68,100,8.5,BR,1684435231
515,bandar lampung,-5.4254,105.258,73.99,95,86,3.98,ID,1684435231
516,lagos,6.5833,3.75,84.52,87,100,4.83,NG,1684435201
517,lovington,32.944,-103.3485,82.33,37,100,1.01,US,1684435232
518,okha,53.5739,142.9478,35.49,95,100,8.63,RU,1684435232
519,balabac,7.9868,117.0645,81.64,79,100,4.9,PH,1684435233
520,soio,-6.1349,12.3689,78.35,85,100,11.97,AO,1684435233
521,tafo,6.7345,-1.6127,74.68,92,100,4.68,GH,1684435234
522,ljusdal,61.8288,16.0913,50.83,57,12,2.95,SE,1684435234
523,phuntsholing,26.8516,89.3884,71.38,90,86,3.27,BT,1684435235
524,cuatro cienegas de carranza,26.9833,-102.0833,86.92,34,80,2.91,MX,1684435235
525,yangambi,0.8102,24.4336,77.5,68,18,3.15,CD,1684435236
526,n'zeto,-7.2312,12.8666,77.92,86,100,10.33,AO,1684435236
527,tartu,58.3806,26.7251,53.85,37,62,5.75,EE,1684435237
528,berdigestyakh,62.0989,126.6992,32.56,85,100,3.67,RU,1684435237
529,amurzet,47.6967,131.0981,49.53,62,22,6.44,RU,1684435238
530,rancho palos verdes,33.7445,-118.387,72.5,87,100,8.05,US,1684435238
531,saint-francois,46.4154,3.9054,60.24,59,0,5.75,FR,1684435239
532,cole harbour,44.6724,-63.4751,55.92,35,40,16.11,CA,1684435151
533,hawera,-39.5917,174.2833,61.23,85,100,16.44,NZ,1684435240
534,warrensburg,38.7628,-93.7361,83.55,31,0,0.0,US,1684435240
535,kulgam,33.65,75.0167,51.46,83,11,2.01,IN,1684435240
536,kawalu,-7.3817,108.2082,72.27,94,100,1.41,ID,1684435241
537,chernyshevsk,52.5243,117.0174,52.12,35,100,15.7,RU,1684435241
538,nueva concepcion,14.2,-91.3,96.35,45,46,6.98,GT,1684435242
539,wuwei,37.9281,102.6414,64.24,33,0,8.59,CN,1684435242
540,korem,12.5058,39.5228,56.84,85,81,4.9,ET,1684435243
541,maragogi,-9.0122,-35.2225,80.65,73,87,8.28,BR,1684435243
542,nova vicosa,-17.8919,-39.3719,75.63,65,28,13.11,BR,1684435243
543,san matias,-16.3667,-58.4,88.39,48,0,2.21,BO,1684435244
544,mana,5.6592,-53.7767,81.68,81,98,9.71,GF,1684435244
545,forster,-32.1667,152.5167,48.38,99,24,11.59,AU,1684435245
546,collombey,46.2701,6.9484,56.44,88,97,2.46,CH,1684435245
547,kampong thom,12.7111,104.8887,83.37,68,25,2.59,KH,1684435246
548,jinchang,38.4953,102.1739,66.54,26,3,5.86,CN,1684435246
549,bikenibeu village,1.3673,173.1241,84.16,79,40,5.75,KI,1684435246
550,kamyzyak,46.11,48.0736,68.02,56,0,6.71,RU,1684435247
551,gebeit,21.0667,36.3167,84.63,18,0,5.14,SD,1684435247
552,el nido,11.1858,119.3956,82.42,75,100,3.4,PH,1684435248
553,altay,47.8667,88.1167,49.17,31,96,8.28,CN,1684435248
554,granbury,32.4421,-97.7942,87.85,57,40,10.36,US,1684435248
555,iwanai,42.9744,140.5089,52.79,83,100,4.05,JP,1684435160
556,usinsk,65.9939,57.5281,58.96,66,100,21.81,RU,1684435250
557,houghton,47.1219,-88.569,65.73,35,0,8.05,US,1684435250
558,khanabad,36.6825,69.1156,71.78,51,89,3.98,AF,1684435251
559,isangel,-19.55,169.2667,77.11,94,75,2.3,VU,1684435251
560,lichtenrade,52.3984,13.4064,59.86,53,0,5.75,DE,1684435251
561,mae hong son,19.3003,97.9685,74.57,79,6,1.05,TH,1684435252
562,nola,40.922,14.5329,64.81,85,100,0.51,IT,1684435252
563,svetlyy,54.675,20.1347,50.05,73,100,7.85,RU,1684435253
564,kuta,-8.7233,115.1723,78.75,88,20,3.44,ID,1684435253
565,magong,23.5654,119.5863,77.32,93,97,10.6,TW,1684435254
566,malanje,-9.5402,16.341,75.07,55,100,2.68,AO,1684435254
567,kaa-khem,51.6833,94.7333,34.18,61,98,6.15,RU,1684435255
568,neryungri,56.6709,124.6491,28.72,94,65,2.8,RU,1684435255
